{
  "LIST_QM_Mapping": [
    {
      "address": "8762 STONERIDGE CT",
      "chartsharinggroupid": "42",
      "city": "CLAXTON",
      "clinicals": "ON",
      "communicatorbrandid": "1",
      "creditcardtypes": [ "DS", "MC", "VI" ],
      "departmentid": "1",
      "doesnotobservedst": false,
      "ecommercecreditcardtypes": [ "DS", "MC", "VI" ],
      "fax": "(888) 555 1832",
      "ishospitaldepartment": false,
      "latitude": "34.25597",
      "longitude": "-85.17026",
      "medicationhistoryconsent": false,
      "name": "MAIN ST (HUB)",
      "oneyearcontractmax": "1500",
      "patientdepartmentname": "Rome Office",
      "phone": "(555) 916-7897",
      "placeofservicefacility": false,
      "placeofservicetypeid": "11",
      "placeofservicetypename": "OFFICE",
      "portalurl": "www.kenneth.net",
      "providergroupid": "1",
      "providergroupname": "Downtown Health Group",
      "servicedepartment": true,
      "singleappointmentcontractmax": "3000",
      "state": "GA",
      "timezone": -5,
      "timezonename": "US/Eastern",
      "timezoneoffset": -5,
      "zip": "30417"
    },
    {
      "address": "8762 STONERIDGE CT",
      "chartsharinggroupid": "42",
      "city": "THOMSON",
      "clinicals": "ON",
      "communicatorbrandid": "1",
      "creditcardtypes": [ "DS", "MC", "VI" ],
      "departmentid": "21",
      "doesnotobservedst": false,
      "ecommercecreditcardtypes": [ "DS", "MC", "VI" ],
      "fax": "(888) 555 1832",
      "ishospitaldepartment": false,
      "latitude": "34.1649",
      "longitude": "-84.79669",
      "medicationhistoryconsent": false,
      "name": "BLUE HILL (HUB)",
      "oneyearcontractmax": "1500",
      "patientdepartmentname": "Cartersville Office",
      "phone": "(555) 225-6052",
      "placeofservicefacility": false,
      "placeofservicetypeid": "11",
      "placeofservicetypename": "OFFICE",
      "portalurl": "www.kenneth.net",
      "providergroupid": "1",
      "providergroupname": "Downtown Health Group",
      "servicedepartment": true,
      "singleappointmentcontractmax": "3000",
      "state": "GA",
      "timezone": -5,
      "timezonename": "US/Eastern",
      "timezoneoffset": -5,
      "zip": "30824-1111"
    },
    {
      "address": "8762 STONERIDGE CT",
      "chartsharinggroupid": "43",
      "city": "DANVERS",
      "clinicals": "ON",
      "communicatorbrandid": "21",
      "creditcardtypes": [ "DS", "MC", "VI" ],
      "departmentid": "62",
      "doesnotobservedst": false,
      "fax": "(888) 555 1832",
      "ishospitaldepartment": false,
      "medicationhistoryconsent": false,
      "name": "NORTH CENTRAL (SPOKE)",
      "oneyearcontractmax": "1500",
      "patientdepartmentname": "Blackstone patient-facing name (athenaNet)",
      "phone": "(555) 314-0397",
      "placeofservicefacility": false,
      "placeofservicetypeid": "11",
      "placeofservicetypename": "OFFICE",
      "portalurl": "www.kenneth.net",
      "providergroupid": "2",
      "providergroupname": "Family Specialists",
      "servicedepartment": true,
      "singleappointmentcontractmax": "3000",
      "state": "MA",
      "timezone": -5,
      "timezonename": "US/Eastern",
      "timezoneoffset": -5,
      "zip": "01923"
    },
    {
      "address": "8762 STONERIDGE CT",
      "address2": "100 MAIN ST",
      "chartsharinggroupid": "42",
      "city": "PAONIA",
      "clinicals": "ON",
      "communicatorbrandid": "1",
      "creditcardtypes": [ "DS", "MC", "VI" ],
      "departmentid": "102",
      "doesnotobservedst": false,
      "ecommercecreditcardtypes": [ "DS", "MC", "VI" ],
      "fax": "(888) 555 1832",
      "ishospitaldepartment": false,
      "medicationhistoryconsent": false,
      "name": "ST FRANCIS HOSP -IN PT",
      "oneyearcontractmax": "1500",
      "patientdepartmentname": "Cardiology Consults",
      "phone": "(555) 063-8553",
      "placeofservicefacility": true,
      "placeofservicetypeid": "22",
      "placeofservicetypename": "ON CAMPUS-OUTPATIENT HOSPITAL",
      "portalurl": "www.kenneth.net",
      "providergroupid": "1",
      "providergroupname": "Downtown Health Group",
      "servicedepartment": true,
      "singleappointmentcontractmax": "3000",
      "state": "CO",
      "timezone": -5,
      "timezonename": "US/Eastern",
      "timezoneoffset": -5,
      "zip": "81428"
    },
    {
      "address": "8762 STONERIDGE CT",
      "chartsharinggroupid": "43",
      "city": "VERNON ROCKVILLE",
      "clinicals": "ON",
      "communicatorbrandid": "21",
      "creditcardtypes": [ "DS", "MC", "VI" ],
      "departmentid": "142",
      "doesnotobservedst": false,
      "fax": "(888) 555 1832",
      "ishospitaldepartment": false,
      "medicationhistoryconsent": false,
      "name": "LANGLEY HOSPITAL-INPT",
      "oneyearcontractmax": "1500",
      "patientdepartmentname": "LANGLEY HOSPITAL-INPT",
      "phone": "(555) 625-9608",
      "placeofservicefacility": false,
      "placeofservicetypeid": "11",
      "placeofservicetypename": "OFFICE",
      "portalurl": "www.kenneth.net",
      "providergroupid": "2",
      "providergroupname": "Family Specialists",
      "servicedepartment": true,
      "singleappointmentcontractmax": "3000",
      "state": "CT",
      "timezone": -5,
      "timezonename": "US/Eastern",
      "timezoneoffset": -5,
      "zip": "06066"
    },
    {
      "address": "8762 STONERIDGE CT",
      "chartsharinggroupid": "42",
      "city": "BUCKFIELD",
      "clinicals": "ON",
      "communicatorbrandid": "1",
      "creditcardtypes": [ "DS", "MC", "VI" ],
      "departmentid": "144",
      "doesnotobservedst": false,
      "ecommercecreditcardtypes": [ "DS", "MC", "VI" ],
      "fax": "(888) 555 1832",
      "ishospitaldepartment": false,
      "medicationhistoryconsent": false,
      "name": "CENTRAL CITY EMER RM",
      "oneyearcontractmax": "1500",
      "patientdepartmentname": "CENTRAL CITY EMER RM",
      "phone": "(555) 609-1105",
      "placeofservicefacility": true,
      "placeofservicetypeid": "23",
      "placeofservicetypename": "EMERGENCY ROOM",
      "portalurl": "www.kenneth.net",
      "providergroupid": "1",
      "providergroupname": "Downtown Health Group",
      "servicedepartment": true,
      "singleappointmentcontractmax": "3000",
      "state": "ME",
      "timezone": -5,
      "timezonename": "US/Eastern",
      "timezoneoffset": -5,
      "zip": "04220-0000"
    },
    {
      "address": "8762 STONERIDGE CT",
      "chartsharinggroupid": "42",
      "city": "NORTH YARMOUTH",
      "clinicals": "ON",
      "communicatorbrandid": "1",
      "creditcardtypes": [ "DS", "MC", "VI" ],
      "departmentid": "145",
      "doesnotobservedst": false,
      "ecommercecreditcardtypes": [ "DS", "MC", "VI" ],
      "fax": "(888) 555 1832",
      "ishospitaldepartment": false,
      "latitude": "44.41919",
      "longitude": "-69.02124",
      "medicationhistoryconsent": false,
      "name": "CENTRAL CITY INPT",
      "oneyearcontractmax": "1500",
      "patientdepartmentname": "Belfast Primary Care",
      "phone": "(555) 482-2453",
      "placeofservicefacility": false,
      "placeofservicetypeid": "11",
      "placeofservicetypename": "OFFICE",
      "portalurl": "www.kenneth.net",
      "providergroupid": "1",
      "providergroupname": "Downtown Health Group",
      "servicedepartment": true,
      "singleappointmentcontractmax": "3000",
      "state": "ME",
      "timezone": -5,
      "timezonename": "US/Eastern",
      "timezoneoffset": -5,
      "zip": "04097"
    },
    {
      "address": "8762 STONERIDGE CT",
      "chartsharinggroupid": "42",
      "city": "NEW YORK",
      "clinicals": "ON",
      "communicatorbrandid": "1",
      "creditcardtypes": [ "DS", "MC", "VI" ],
      "departmentid": "148",
      "doesnotobservedst": false,
      "ecommercecreditcardtypes": [ "DS", "MC", "VI" ],
      "fax": "(888) 555 1832",
      "ishospitaldepartment": false,
      "latitude": "44.27192",
      "longitude": "-69.37563",
      "medicationhistoryconsent": false,
      "name": "CENTRAL CITY SURGERY",
      "oneyearcontractmax": "1500",
      "patientdepartmentname": "Portal Test",
      "phone": "(555) 759-3337",
      "placeofservicefacility": false,
      "placeofservicetypeid": "11",
      "placeofservicetypename": "OFFICE",
      "portalurl": "www.kenneth.net",
      "providergroupid": "1",
      "providergroupname": "Downtown Health Group",
      "servicedepartment": true,
      "singleappointmentcontractmax": "3000",
      "state": "NY",
      "timezone": -5,
      "timezonename": "US/Eastern",
      "timezoneoffset": -5,
      "zip": "10199"
    },
    {
      "address": "8762 STONERIDGE CT",
      "chartsharinggroupid": "42",
      "city": "BAR MILLS",
      "clinicals": "ON",
      "communicatorbrandid": "1",
      "creditcardtypes": [ "DS", "MC", "VI" ],
      "departmentid": "150",
      "doesnotobservedst": false,
      "ecommercecreditcardtypes": [ "DS", "MC", "VI" ],
      "fax": "(888) 555 1832",
      "ishospitaldepartment": false,
      "latitude": "44.41919",
      "longitude": "-69.02124",
      "medicationhistoryconsent": false,
      "name": "ST FRANCIS SURGERY",
      "oneyearcontractmax": "1500",
      "patientdepartmentname": "7 Hills' & Co. Department",
      "phone": "(555) 829-4068",
      "placeofservicefacility": false,
      "placeofservicetypeid": "11",
      "placeofservicetypename": "OFFICE",
      "portalurl": "www.kenneth.net",
      "providergroupid": "1",
      "providergroupname": "Downtown Health Group",
      "servicedepartment": true,
      "singleappointmentcontractmax": "3000",
      "state": "ME",
      "timezone": -5,
      "timezonename": "US/Eastern",
      "timezoneoffset": -5,
      "zip": "04004"
    },
    {
      "address": "8762 STONERIDGE CT",
      "chartsharinggroupid": "42",
      "city": "BOSTON",
      "clinicals": "ON",
      "communicatorbrandid": "1",
      "creditcardtypes": [ "DS", "MC", "VI" ],
      "departmentid": "157",
      "doesnotobservedst": false,
      "ecommercecreditcardtypes": [ "DS", "MC", "VI" ],
      "fax": "(888) 555 1832",
      "ishospitaldepartment": false,
      "latitude": "33.12390285",
      "longitude": "-84.29847983",
      "medicationhistoryconsent": false,
      "name": "CHERRY STREET",
      "oneyearcontractmax": "1500",
      "patientdepartmentname": "CommOpsDevTest",
      "phone": "(555) 940-9531",
      "placeofservicefacility": false,
      "placeofservicetypeid": "11",
      "placeofservicetypename": "OFFICE",
      "portalurl": "www.kenneth.net",
      "providergroupid": "1",
      "providergroupname": "Downtown Health Group",
      "servicedepartment": true,
      "singleappointmentcontractmax": "3000",
      "state": "MA",
      "timezone": -5,
      "timezonename": "US/Eastern",
      "timezoneoffset": -5,
      "zip": "02106"
    },
    {
      "address": "8762 STONERIDGE CT",
      "chartsharinggroupid": "42",
      "city": "BALLSTON SPA",
      "clinicals": "OFF",
      "communicatorbrandid": "1",
      "creditcardtypes": [ "DS", "MC", "VI" ],
      "departmentid": "162",
      "doesnotobservedst": false,
      "ecommercecreditcardtypes": [ "DS", "MC", "VI" ],
      "fax": "(888) 555 1832",
      "ishospitaldepartment": false,
      "medicationhistoryconsent": false,
      "name": "MERCY HOSPITAL",
      "oneyearcontractmax": "1500",
      "patientdepartmentname": "Main Office",
      "phone": "(555) 946-3582",
      "placeofservicefacility": false,
      "placeofservicetypeid": "11",
      "placeofservicetypename": "OFFICE",
      "portalurl": "www.kenneth.net",
      "providergroupid": "1",
      "providergroupname": "Downtown Health Group",
      "servicedepartment": true,
      "singleappointmentcontractmax": "3000",
      "state": "NY",
      "timezone": -5,
      "timezonename": "US/Eastern",
      "timezoneoffset": -5,
      "zip": "12020"
    },
    {
      "address": "8762 STONERIDGE CT",
      "chartsharinggroupid": "43",
      "city": "ABBOT",
      "clinicals": "OFF",
      "communicatorbrandid": "21",
      "creditcardtypes": [ "DS", "MC", "VI" ],
      "departmentid": "164",
      "doesnotobservedst": false,
      "fax": "(888) 555 1832",
      "ishospitaldepartment": false,
      "medicationhistoryconsent": false,
      "name": "WEST HILL HOSPITAL",
      "oneyearcontractmax": "1500",
      "patientdepartmentname": "WEST HILL HOSPITAL",
      "phone": "(555) 586-9114",
      "placeofservicefacility": false,
      "placeofservicetypeid": "11",
      "placeofservicetypename": "OFFICE",
      "portalurl": "www.kenneth.net",
      "providergroupid": "2",
      "providergroupname": "Family Specialists",
      "servicedepartment": true,
      "singleappointmentcontractmax": "3000",
      "state": "ME",
      "timezone": -5,
      "timezonename": "US/Eastern",
      "timezoneoffset": -5,
      "zip": "04406"
    },
    {
      "address": "1607 Appian Way",
      "chartsharinggroupid": "42",
      "city": "SANTA MONICA",
      "clinicals": "OFF",
      "communicatorbrandid": "1",
      "departmentid": "172",
      "doesnotobservedst": false,
      "ecommercecreditcardtypes": [ "DS", "MC", "VI" ],
      "fax": "(888) 555 1832",
      "ishospitaldepartment": false,
      "medicationhistoryconsent": false,
      "name": "WEST COAST CARE ER",
      "patientdepartmentname": "7 Hills Medical Group - West Coast ER",
      "phone": "(310) 458-5555",
      "placeofservicefacility": true,
      "placeofservicetypeid": "23",
      "placeofservicetypename": "EMERGENCY ROOM",
      "portalurl": "www.kenneth.net",
      "providergroupid": "1",
      "providergroupname": "Downtown Health Group",
      "servicedepartment": true,
      "state": "CA",
      "timezone": -8,
      "timezonename": "America/Los_Angeles",
      "timezoneoffset": -8,
      "zip": "90401-1000"
    }
  ],
  "lstMapCareoppsPrograms": [
    
    { }
  ],
 
}